header: 
  seq: 5773
  stamp: 
    secs: 136
    nsecs: 960000000
  frame_id: "base_link"
orientation: 
  x: 0.004713382743964998
  y: -0.007417734126213504
  z: -5.3020735426623676e-05
  w: -0.999961376372493
orientation_covariance: [1.0, 0.0, 0.0, 0.0, 1.0, 0.0, 0.0, 0.0, 1.0]
angular_velocity: 
  x: -0.0041423374786973
  y: 0.0028616501949727535
  z: -0.0006996343145146969
angular_velocity_covariance: [1.2184696791468346e-07, 0.0, 0.0, 0.0, 1.2184696791468346e-07, 0.0, 0.0, 0.0, 1.2184696791468346e-07]
linear_acceleration: 
  x: -0.1796879768371582
  y: -0.08932887762784837
  z: 9.817458152770996
linear_acceleration_covariance: [8.999999999999999e-08, 0.0, 0.0, 0.0, 8.999999999999999e-08, 0.0, 0.0, 0.0, 8.999999999999999e-08]
---
header: 
  seq: 5774
  stamp: 
    secs: 136
    nsecs: 976000000
  frame_id: "base_link"
orientation: 
  x: 0.004754616273561383
  y: -0.007433708358025577
  z: -6.55383494343469e-05
  w: -0.9999610813445534
orientation_covariance: [1.0, 0.0, 0.0, 0.0, 1.0, 0.0, 0.0, 0.0, 1.0]
angular_velocity: 
  x: -0.0014246065402403474
  y: -0.0009934538975358012
  z: -0.001623513759113848
angular_velocity_covariance: [1.2184696791468346e-07, 0.0, 0.0, 0.0, 1.2184696791468346e-07, 0.0, 0.0, 0.0, 1.2184696791468346e-07]
linear_acceleration: 
  x: -0.18926483392715454
  y: -0.07616077363490939
  z: 9.797107696533203
linear_acceleration_covariance: [8.999999999999999e-08, 0.0, 0.0, 0.0, 8.999999999999999e-08, 0.0, 0.0, 0.0, 8.999999999999999e-08]
---
header: 
  seq: 5775
  stamp: 
    secs: 137
    nsecs:         0
  frame_id: "base_link"
orientation: 
  x: 0.004762963983744573
  y: -0.007446366900558021
  z: -5.546525264027481e-05
  w: -0.9999609549040079
orientation_covariance: [1.0, 0.0, 0.0, 0.0, 1.0, 0.0, 0.0, 0.0, 1.0]
angular_velocity: 
  x: 0.00084717757999897
  y: 0.0005414662882685662
  z: 0.0005579040152952074
angular_velocity_covariance: [1.2184696791468346e-07, 0.0, 0.0, 0.0, 1.2184696791468346e-07, 0.0, 0.0, 0.0, 1.2184696791468346e-07]
linear_acceleration: 
  x: -0.17011120915412903
  y: -0.11327087879180789
  z: 9.78393840789795
linear_acceleration_covariance: [8.999999999999999e-08, 0.0, 0.0, 0.0, 8.999999999999999e-08, 0.0, 0.0, 0.0, 8.999999999999999e-08]
---
header: 
  seq: 5776
  stamp: 
    secs: 137
    nsecs:  20000000
  frame_id: "base_link"
orientation: 
  x: 0.004766861908687322
  y: -0.007459753134771785
  z: -6.37681817968754e-05
  w: -0.9999608284634623
orientation_covariance: [1.0, 0.0, 0.0, 0.0, 1.0, 0.0, 0.0, 0.0, 1.0]
angular_velocity: 
  x: -4.807978984899819e-05
  y: 0.002166943158954382
  z: -0.00010929453856078935
angular_velocity_covariance: [1.2184696791468346e-07, 0.0, 0.0, 0.0, 1.2184696791468346e-07, 0.0, 0.0, 0.0, 1.2184696791468346e-07]
linear_acceleration: 
  x: -0.17849089205265045
  y: -0.12284772098064303
  z: 9.798304557800293
linear_acceleration_covariance: [8.999999999999999e-08, 0.0, 0.0, 0.0, 8.999999999999999e-08, 0.0, 0.0, 0.0, 8.999999999999999e-08]
---
header: 
  seq: 5777
  stamp: 
    secs: 137
    nsecs:  40000000
  frame_id: "base_link"
orientation: 
  x: 0.004777482832194004
  y: -0.00750340286416796
  z: -7.422060022765954e-05
  w: -0.9999604912886741
orientation_covariance: [1.0, 0.0, 0.0, 0.0, 1.0, 0.0, 0.0, 0.0, 1.0]
angular_velocity: 
  x: -0.0006401963764801621
  y: 0.005298005882650614
  z: 0.0011296186130493873
angular_velocity_covariance: [1.2184696791468346e-07, 0.0, 0.0, 0.0, 1.2184696791468346e-07, 0.0, 0.0, 0.0, 1.2184696791468346e-07]
linear_acceleration: 
  x: -0.1880677342414856
  y: -0.07616076618432878
  z: 9.803092002868652
linear_acceleration_covariance: [8.999999999999999e-08, 0.0, 0.0, 0.0, 8.999999999999999e-08, 0.0, 0.0, 0.0, 8.999999999999999e-08]
---
header: 
  seq: 5778
  stamp: 
    secs: 137
    nsecs:  60000000
  frame_id: "base_link"
orientation: 
  x: 0.004786703031532206
  y: -0.007550215582835975
  z: -6.604411161648162e-05
  w: -0.9999600698201891
orientation_covariance: [1.0, 0.0, 0.0, 0.0, 1.0, 0.0, 0.0, 0.0, 1.0]
angular_velocity: 
  x: -0.0005268193199299276
  y: 0.003224001731723547
  z: -0.0004308312782086436
angular_velocity_covariance: [1.2184696791468346e-07, 0.0, 0.0, 0.0, 1.2184696791468346e-07, 0.0, 0.0, 0.0, 1.2184696791468346e-07]
linear_acceleration: 
  x: -0.1533517986536026
  y: -0.12404480576515078
  z: 9.774361610412598
linear_acceleration_covariance: [8.999999999999999e-08, 0.0, 0.0, 0.0, 8.999999999999999e-08, 0.0, 0.0, 0.0, 8.999999999999999e-08]
---
header: 
  seq: 5779
  stamp: 
    secs: 137
    nsecs:  80000000
  frame_id: "base_link"
orientation: 
  x: 0.004814087452443779
  y: -0.00761786176860434
  z: -5.8710559975639255e-05
  w: -0.999959395470613
orientation_covariance: [1.0, 0.0, 0.0, 0.0, 1.0, 0.0, 0.0, 0.0, 1.0]
angular_velocity: 
  x: -0.002698744647204876
  y: 0.006117389071732759
  z: -0.0038790570106357345
angular_velocity_covariance: [1.2184696791468346e-07, 0.0, 0.0, 0.0, 1.2184696791468346e-07, 0.0, 0.0, 0.0, 1.2184696791468346e-07]
linear_acceleration: 
  x: -0.14373406767845154
  y: -0.12395509332418321
  z: 9.840356826782227
linear_acceleration_covariance: [8.999999999999999e-08, 0.0, 0.0, 0.0, 8.999999999999999e-08, 0.0, 0.0, 0.0, 8.999999999999999e-08]
---
header: 
  seq: 5780
  stamp: 
    secs: 137
    nsecs: 100000000
  frame_id: "base_link"
orientation: 
  x: 0.0048654754913990675
  y: -0.007682394685211218
  z: -5.6476777004488744e-05
  w: -0.9999586789741883
orientation_covariance: [1.0, 0.0, 0.0, 0.0, 1.0, 0.0, 0.0, 0.0, 1.0]
angular_velocity: 
  x: -0.002901250496506691
  y: 0.0027474691160023212
  z: -0.0013388616498559718
angular_velocity_covariance: [1.2184696791468346e-07, 0.0, 0.0, 0.0, 1.2184696791468346e-07, 0.0, 0.0, 0.0, 1.2184696791468346e-07]
linear_acceleration: 
  x: -0.18922394514083862
  y: -0.10001306980848193
  z: 9.80085277557373
linear_acceleration_covariance: [8.999999999999999e-08, 0.0, 0.0, 0.0, 8.999999999999999e-08, 0.0, 0.0, 0.0, 8.999999999999999e-08]
---
header: 
  seq: 5781
  stamp: 
    secs: 137
    nsecs: 116000000
  frame_id: "base_link"
orientation: 
  x: 0.004883760308935462
  y: -0.007725949831152433
  z: -6.520117464631262e-05
  w: -0.9999582996525516
orientation_covariance: [1.0, 0.0, 0.0, 0.0, 1.0, 0.0, 0.0, 0.0, 1.0]
angular_velocity: 
  x: -0.0009026810876093805
  y: 0.002952917944639921
  z: 0.0010095582110807295
angular_velocity_covariance: [1.2184696791468346e-07, 0.0, 0.0, 0.0, 1.2184696791468346e-07, 0.0, 0.0, 0.0, 1.2184696791468346e-07]
linear_acceleration: 
  x: -0.16528192162513733
  y: -0.13712319731712222
  z: 9.784093856811523
linear_acceleration_covariance: [8.999999999999999e-08, 0.0, 0.0, 0.0, 8.999999999999999e-08, 0.0, 0.0, 0.0, 8.999999999999999e-08]
---
header: 
  seq: 5782
  stamp: 
    secs: 137
    nsecs: 140000000
  frame_id: "base_link"
orientation: 
  x: 0.004893789118611404
  y: -0.00772624699936166
  z: -7.91096346548508e-05
  w: -0.9999582153588547
orientation_covariance: [1.0, 0.0, 0.0, 0.0, 1.0, 0.0, 0.0, 0.0, 1.0]
angular_velocity: 
  x: 0.0015058701392263174
  y: -0.005143164657056332
  z: 0.0008386864210478968
angular_velocity_covariance: [1.2184696791468346e-07, 0.0, 0.0, 0.0, 1.2184696791468346e-07, 0.0, 0.0, 0.0, 1.2184696791468346e-07]
linear_acceleration: 
  x: -0.14133986830711365
  y: -0.07128265500068545
  z: 9.799657821655273
linear_acceleration_covariance: [8.999999999999999e-08, 0.0, 0.0, 0.0, 8.999999999999999e-08, 0.0, 0.0, 0.0, 8.999999999999999e-08]
---
header: 
  seq: 5783
  stamp: 
    secs: 137
    nsecs: 160000000
  frame_id: "base_link"
orientation: 
  x: 0.004895248947149474
  y: -0.007697718357367468
  z: -8.235494199015972e-05
  w: -0.9999584260930972
orientation_covariance: [1.0, 0.0, 0.0, 0.0, 1.0, 0.0, 0.0, 0.0, 1.0]
angular_velocity: 
  x: 0.002649670699611306
  y: -0.0049661691300570965
  z: -0.00022646892466582298
angular_velocity_covariance: [1.2184696791468346e-07, 0.0, 0.0, 0.0, 1.2184696791468346e-07, 0.0, 0.0, 0.0, 1.2184696791468346e-07]
linear_acceleration: 
  x: -0.17605578899383545
  y: -0.08564786612987399
  z: 9.761350631713867
linear_acceleration_covariance: [8.999999999999999e-08, 0.0, 0.0, 0.0, 8.999999999999999e-08, 0.0, 0.0, 0.0, 8.999999999999999e-08]
---
header: 
  seq: 5784
  stamp: 
    secs: 137
    nsecs: 176000000
  frame_id: "base_link"
orientation: 
  x: 0.0048741309888216755
  y: -0.0076189443334574005
  z: -8.463087180982145e-05
  w: -0.9999591004426734
orientation_covariance: [1.0, 0.0, 0.0, 0.0, 1.0, 0.0, 0.0, 0.0, 1.0]
angular_velocity: 
  x: 0.00305761257186532
  y: -0.010434502735733986
  z: -1.6411839169448827e-05
angular_velocity_covariance: [1.2184696791468346e-07, 0.0, 0.0, 0.0, 1.2184696791468346e-07, 0.0, 0.0, 0.0, 1.2184696791468346e-07]
linear_acceleration: 
  x: -0.1772528886795044
  y: -0.08085945993661761
  z: 9.794867515563965
linear_acceleration_covariance: [8.999999999999999e-08, 0.0, 0.0, 0.0, 8.999999999999999e-08, 0.0, 0.0, 0.0, 8.999999999999999e-08]
---
header: 
  seq: 5785
  stamp: 
    secs: 137
    nsecs: 196000000
  frame_id: "base_link"
orientation: 
  x: 0.0048447533183205655
  y: -0.007535448792379287
  z: -0.00010418700951886397
  w: -0.9999598590859465
orientation_covariance: [1.0, 0.0, 0.0, 0.0, 1.0, 0.0, 0.0, 0.0, 1.0]
angular_velocity: 
  x: 0.0033139146398752928
  y: -0.006075670011341572
  z: 0.0034722655545920142
angular_velocity_covariance: [1.2184696791468346e-07, 0.0, 0.0, 0.0, 1.2184696791468346e-07, 0.0, 0.0, 0.0, 1.2184696791468346e-07]
linear_acceleration: 
  x: -0.16528192162513733
  y: -0.06529714912176013
  z: 9.782896041870117
linear_acceleration_covariance: [8.999999999999999e-08, 0.0, 0.0, 0.0, 8.999999999999999e-08, 0.0, 0.0, 0.0, 8.999999999999999e-08]
---
header: 
  seq: 5786
  stamp: 
    secs: 137
    nsecs: 216000000
  frame_id: "base_link"
orientation: 
  x: 0.004804705333474676
  y: -0.0074907829288072955
  z: -0.00010975039352229034
  w: -0.9999604491418257
orientation_covariance: [1.0, 0.0, 0.0, 0.0, 1.0, 0.0, 0.0, 0.0, 1.0]
angular_velocity: 
  x: 0.005662659183144569
  y: -0.007514505181461573
  z: -0.0006866997573524705
angular_velocity_covariance: [1.2184696791468346e-07, 0.0, 0.0, 0.0, 1.2184696791468346e-07, 0.0, 0.0, 0.0, 1.2184696791468346e-07]
linear_acceleration: 
  x: -0.19281522929668427
  y: -0.08684496581554293
  z: 9.791275978088379
linear_acceleration_covariance: [8.999999999999999e-08, 0.0, 0.0, 0.0, 8.999999999999999e-08, 0.0, 0.0, 0.0, 8.999999999999999e-08]
---
header: 
  seq: 5787
  stamp: 
    secs: 137
    nsecs: 236000000
  frame_id: "base_link"
orientation: 
  x: 0.004722156532444853
  y: -0.007429410778884545
  z: -0.00011788473528495704
  w: -0.9999612499319475
orientation_covariance: [1.0, 0.0, 0.0, 0.0, 1.0, 0.0, 0.0, 0.0, 1.0]
angular_velocity: 
  x: 0.010530487634241581
  y: -0.006960081867873669
  z: 0.0014754433650523433
angular_velocity_covariance: [1.2184696791468346e-07, 0.0, 0.0, 0.0, 1.2184696791468346e-07, 0.0, 0.0, 0.0, 1.2184696791468346e-07]
linear_acceleration: 
  x: -0.15929639339447021
  y: -0.10240726917981981
  z: 9.808036804199219
linear_acceleration_covariance: [8.999999999999999e-08, 0.0, 0.0, 0.0, 8.999999999999999e-08, 0.0, 0.0, 0.0, 8.999999999999999e-08]
---
header: 
  seq: 5788
  stamp: 
    secs: 137
    nsecs: 260000000
  frame_id: "base_link"
orientation: 
  x: 0.004636816902108261
  y: -0.007336928904086626
  z: -0.00010148961121420097
  w: -0.9999623878968572
orientation_covariance: [1.0, 0.0, 0.0, 0.0, 1.0, 0.0, 0.0, 0.0, 1.0]
angular_velocity: 
  x: 0.010052273981273174
  y: -0.00984322652220726
  z: -0.0010278376284986721
angular_velocity_covariance: [1.2184696791468346e-07, 0.0, 0.0, 0.0, 1.2184696791468346e-07, 0.0, 0.0, 0.0, 1.2184696791468346e-07]
linear_acceleration: 
  x: -0.19281522929668427
  y: -0.1048014834523189
  z: 9.782896041870117
linear_acceleration_covariance: [8.999999999999999e-08, 0.0, 0.0, 0.0, 8.999999999999999e-08, 0.0, 0.0, 0.0, 8.999999999999999e-08]
---
header: 
  seq: 5789
  stamp: 
    secs: 137
    nsecs: 276000000
  frame_id: "base_link"
orientation: 
  x: 0.004540599680543001
  y: -0.0072335346998372435
  z: -9.862362551543758e-05
  w: -0.9999635680086154
orientation_covariance: [1.0, 0.0, 0.0, 0.0, 1.0, 0.0, 0.0, 0.0, 1.0]
angular_velocity: 
  x: 0.009115020744502544
  y: -0.00892680510878563
  z: -0.0003939871967304487
angular_velocity_covariance: [1.2184696791468346e-07, 0.0, 0.0, 0.0, 1.2184696791468346e-07, 0.0, 0.0, 0.0, 1.2184696791468346e-07]
linear_acceleration: 
  x: -0.14971961081027985
  y: -0.08325365930795549
  z: 9.841554641723633
linear_acceleration_covariance: [8.999999999999999e-08, 0.0, 0.0, 0.0, 8.999999999999999e-08, 0.0, 0.0, 0.0, 8.999999999999999e-08]
---
header: 
  seq: 5790
  stamp: 
    secs: 137
    nsecs: 300000000
  frame_id: "base_link"
orientation: 
  x: 0.004449520917137403
  y: -0.007143382014645997
  z: -0.00011957060922529504
  w: -0.9999646216798284
orientation_covariance: [1.0, 0.0, 0.0, 0.0, 1.0, 0.0, 0.0, 0.0, 1.0]
angular_velocity: 
  x: 0.006427318789064884
  y: -0.008974164724349976
  z: 0.0029208641499280943
angular_velocity_covariance: [1.2184696791468346e-07, 0.0, 0.0, 0.0, 1.2184696791468346e-07, 0.0, 0.0, 0.0, 1.2184696791468346e-07]
linear_acceleration: 
  x: -0.17366161942481995
  y: -0.08804205805063128
  z: 9.76254653930664
linear_acceleration_covariance: [8.999999999999999e-08, 0.0, 0.0, 0.0, 8.999999999999999e-08, 0.0, 0.0, 0.0, 8.999999999999999e-08]
---
header: 
  seq: 5791
  stamp: 
    secs: 137
    nsecs: 320000000
  frame_id: "base_link"
orientation: 
  x: 0.004399142262276725
  y: -0.00708093092186498
  z: -0.00013272042596074217
  w: -0.9999652960294045
orientation_covariance: [1.0, 0.0, 0.0, 0.0, 1.0, 0.0, 0.0, 0.0, 1.0]
angular_velocity: 
  x: 0.0040291245095431805
  y: -0.006477583199739456
  z: 0.00022253835049923588
angular_velocity_covariance: [1.2184696791468346e-07, 0.0, 0.0, 0.0, 1.2184696791468346e-07, 0.0, 0.0, 0.0, 1.2184696791468346e-07]
linear_acceleration: 
  x: -0.19520941376686096
  y: -0.09642177075147508
  z: 9.827190399169922
linear_acceleration_covariance: [8.999999999999999e-08, 0.0, 0.0, 0.0, 8.999999999999999e-08, 0.0, 0.0, 0.0, 8.999999999999999e-08]
---
header: 
  seq: 5792
  stamp: 
    secs: 137
    nsecs: 340000000
  frame_id: "base_link"
orientation: 
  x: 0.004352308717138645
  y: -0.007019655166394585
  z: -0.0001312031394142825
  w: -0.9999658860852836
orientation_covariance: [1.0, 0.0, 0.0, 0.0, 1.0, 0.0, 0.0, 0.0, 1.0]
angular_velocity: 
  x: 0.005249323323369026
  y: -0.006625157315284014
  z: -0.0021518676076084367
angular_velocity_covariance: [1.2184696791468346e-07, 0.0, 0.0, 0.0, 1.2184696791468346e-07, 0.0, 0.0, 0.0, 1.2184696791468346e-07]
linear_acceleration: 
  x: -0.15690219402313232
  y: -0.1311376690864551
  z: 9.810429573059082
linear_acceleration_covariance: [8.999999999999999e-08, 0.0, 0.0, 0.0, 8.999999999999999e-08, 0.0, 0.0, 0.0, 8.999999999999999e-08]
---
header: 
  seq: 5793
  stamp: 
    secs: 137
    nsecs: 360000000
  frame_id: "base_link"
orientation: 
  x: 0.004283834823241808
  y: -0.006948160693475759
  z: -0.00015265588530638573
  w: -0.9999666868754054
orientation_covariance: [1.0, 0.0, 0.0, 0.0, 1.0, 0.0, 0.0, 0.0, 1.0]
angular_velocity: 
  x: 0.005162396933883429
  y: -0.008906383067369461
  z: 0.0010566128185018908
angular_velocity_covariance: [1.2184696791468346e-07, 0.0, 0.0, 0.0, 1.2184696791468346e-07, 0.0, 0.0, 0.0, 1.2184696791468346e-07]
linear_acceleration: 
  x: -0.19401231408119202
  y: -0.09402757883071779
  z: 9.809234619140625
linear_acceleration_covariance: [8.999999999999999e-08, 0.0, 0.0, 0.0, 8.999999999999999e-08, 0.0, 0.0, 0.0, 8.999999999999999e-08]
---
header: 
  seq: 5794
  stamp: 
    secs: 137
    nsecs: 380000000
  frame_id: "base_link"
orientation: 
  x: 0.004240459953859654
  y: -0.006891887242088
  z: -0.00014945272481953252
  w: -0.9999672769312845
orientation_covariance: [1.0, 0.0, 0.0, 0.0, 1.0, 0.0, 0.0, 0.0, 1.0]
angular_velocity: 
  x: 0.000649081077426672
  y: -0.001947493059560657
  z: -0.002807160140946507
angular_velocity_covariance: [1.2184696791468346e-07, 0.0, 0.0, 0.0, 1.2184696791468346e-07, 0.0, 0.0, 0.0, 1.2184696791468346e-07]
linear_acceleration: 
  x: -0.15809929370880127
  y: -0.08804205805063128
  z: 9.80204963684082
linear_acceleration_covariance: [8.999999999999999e-08, 0.0, 0.0, 0.0, 8.999999999999999e-08, 0.0, 0.0, 0.0, 8.999999999999999e-08]
---
header: 
  seq: 5795
  stamp: 
    secs: 137
    nsecs: 400000000
  frame_id: "base_link"
orientation: 
  x: 0.004237657353069806
  y: -0.0068658574472293486
  z: -0.00012740992304838316
  w: -0.999967487665527
orientation_covariance: [1.0, 0.0, 0.0, 0.0, 1.0, 0.0, 0.0, 0.0, 1.0]
angular_velocity: 
  x: -0.0003668264835141599
  y: -0.0025391564704477787
  z: 0.0005849960725754503
angular_velocity_covariance: [1.2184696791468346e-07, 0.0, 0.0, 0.0, 1.2184696791468346e-07, 0.0, 0.0, 0.0, 1.2184696791468346e-07]
linear_acceleration: 
  x: -0.16767612099647522
  y: -0.10240726917981982
  z: 9.794867515563965
linear_acceleration_covariance: [8.999999999999999e-08, 0.0, 0.0, 0.0, 8.999999999999999e-08, 0.0, 0.0, 0.0, 8.999999999999999e-08]
---
header: 
  seq: 5796
  stamp: 
    secs: 137
    nsecs: 416000000
  frame_id: "base_link"
orientation: 
  x: 0.0042488979669585
  y: -0.006838014926294411
  z: -0.0001464181517267242
  w: -0.9999676141060726
orientation_covariance: [1.0, 0.0, 0.0, 0.0, 1.0, 0.0, 0.0, 0.0, 1.0]
angular_velocity: 
  x: -0.0020141443237662315
  y: 0.0002393103204667568
  z: -0.00021986183128319683
angular_velocity_covariance: [1.2184696791468346e-07, 0.0, 0.0, 0.0, 1.2184696791468346e-07, 0.0, 0.0, 0.0, 1.2184696791468346e-07]
linear_acceleration: 
  x: -0.17964708805084229
  y: -0.10240726917981982
  z: 9.791275978088379
linear_acceleration_covariance: [8.999999999999999e-08, 0.0, 0.0, 0.0, 8.999999999999999e-08, 0.0, 0.0, 0.0, 8.999999999999999e-08]
---
header: 
  seq: 5797
  stamp: 
    secs: 137
    nsecs: 436000000
  frame_id: "base_link"
orientation: 
  x: 0.004260142779068431
  y: -0.0068659864396348495
  z: -0.00013571285220503925
  w: -0.9999673612249815
orientation_covariance: [1.0, 0.0, 0.0, 0.0, 1.0, 0.0, 0.0, 0.0, 1.0]
angular_velocity: 
  x: -2.1052605006843805e-05
  y: 0.003363302443176508
  z: -0.0017585186287760739
angular_velocity_covariance: [1.2184696791468346e-07, 0.0, 0.0, 0.0, 1.2184696791468346e-07, 0.0, 0.0, 0.0, 1.2184696791468346e-07]
linear_acceleration: 
  x: -0.17605578899383545
  y: -0.09881597012281297
  z: 9.810429573059082
linear_acceleration_covariance: [8.999999999999999e-08, 0.0, 0.0, 0.0, 8.999999999999999e-08, 0.0, 0.0, 0.0, 8.999999999999999e-08]
---
header: 
  seq: 5798
  stamp: 
    secs: 137
    nsecs: 456000000
  frame_id: "base_link"
orientation: 
  x: 0.004271989171586405
  y: -0.0069350738500589355
  z: -0.00012504969953175448
  w: -0.9999668133159508
orientation_covariance: [1.0, 0.0, 0.0, 0.0, 1.0, 0.0, 0.0, 0.0, 1.0]
angular_velocity: 
  x: -0.0033631015103310347
  y: 0.007552563678473233
  z: -0.0036528590135276326
angular_velocity_covariance: [1.2184696791468346e-07, 0.0, 0.0, 0.0, 1.2184696791468346e-07, 0.0, 0.0, 0.0, 1.2184696791468346e-07]
linear_acceleration: 
  x: -0.13894566893577576
  y: -0.07487395405769227
  z: 9.804443359375
linear_acceleration_covariance: [8.999999999999999e-08, 0.0, 0.0, 0.0, 8.999999999999999e-08, 0.0, 0.0, 0.0, 8.999999999999999e-08]
---
header: 
  seq: 5799
  stamp: 
    secs: 137
    nsecs: 476000000
  frame_id: "base_link"
orientation: 
  x: 0.004329282708417029
  y: -0.0070271000120573305
  z: -9.946656248566209e-05
  w: -0.999965928232132
orientation_covariance: [1.0, 0.0, 0.0, 0.0, 1.0, 0.0, 0.0, 0.0, 1.0]
angular_velocity: 
  x: -0.005220051389187574
  y: 0.00572510389611125
  z: -0.001261807512491942
angular_velocity_covariance: [1.2184696791468346e-07, 0.0, 0.0, 0.0, 1.2184696791468346e-07, 0.0, 0.0, 0.0, 1.2184696791468346e-07]
linear_acceleration: 
  x: -0.15809929370880127
  y: -0.10480148345231889
  z: 9.812824249267578
linear_acceleration_covariance: [8.999999999999999e-08, 0.0, 0.0, 0.0, 8.999999999999999e-08, 0.0, 0.0, 0.0, 8.999999999999999e-08]
---
header: 
  seq: 5800
  stamp: 
    secs: 137
    nsecs: 500000000
  frame_id: "base_link"
orientation: 
  x: 0.004397807310240981
  y: -0.007090496363161493
  z: -7.784522919956948e-05
  w: -0.9999652117357075
orientation_covariance: [1.0, 0.0, 0.0, 0.0, 1.0, 0.0, 0.0, 0.0, 1.0]
angular_velocity: 
  x: -0.005880917888134718
  y: 0.004479893017560244
  z: 0.0011750910198315972
angular_velocity_covariance: [1.2184696791468346e-07, 0.0, 0.0, 0.0, 1.2184696791468346e-07, 0.0, 0.0, 0.0, 1.2184696791468346e-07]
linear_acceleration: 
  x: -0.16288769245147705
  y: -0.11078696697950244
  z: 9.798460006713867
linear_acceleration_covariance: [8.999999999999999e-08, 0.0, 0.0, 0.0, 8.999999999999999e-08, 0.0, 0.0, 0.0, 8.999999999999999e-08]
---
header: 
  seq: 5801
  stamp: 
    secs: 137
    nsecs: 520000000
  frame_id: "base_link"
orientation: 
  x: 0.00445746897312231
  y: -0.007124998662387597
  z: -6.874150992114457e-05
  w: -0.9999647059735253
orientation_covariance: [1.0, 0.0, 0.0, 0.0, 1.0, 0.0, 0.0, 0.0, 1.0]
angular_velocity: 
  x: -0.005186799913644791
  y: 0.0004207515157759191
  z: 0.0013434364227578044
angular_velocity_covariance: [1.2184696791468346e-07, 0.0, 0.0, 0.0, 1.2184696791468346e-07, 0.0, 0.0, 0.0, 1.2184696791468346e-07]
linear_acceleration: 
  x: -0.1856326460838318
  y: -0.12395509332418321
  z: 9.821203231811523
linear_acceleration_covariance: [8.999999999999999e-08, 0.0, 0.0, 0.0, 8.999999999999999e-08, 0.0, 0.0, 0.0, 8.999999999999999e-08]
---
header: 
  seq: 5802
  stamp: 
    secs: 137
    nsecs: 536000000
  frame_id: "base_link"
orientation: 
  x: 0.004519635656993942
  y: -0.0071253686820830185
  z: -7.072241180117221e-05
  w: -0.9999644109455857
orientation_covariance: [1.0, 0.0, 0.0, 0.0, 1.0, 0.0, 0.0, 0.0, 1.0]
angular_velocity: 
  x: -0.0044261738657951355
  y: -0.0028952721040695906
  z: 0.00016248686006292736
angular_velocity_covariance: [1.2184696791468346e-07, 0.0, 0.0, 0.0, 1.2184696791468346e-07, 0.0, 0.0, 0.0, 1.2184696791468346e-07]
linear_acceleration: 
  x: -0.16767612099647522
  y: -0.09043627232313035
  z: 9.845148086547852
linear_acceleration_covariance: [8.999999999999999e-08, 0.0, 0.0, 0.0, 8.999999999999999e-08, 0.0, 0.0, 0.0, 8.999999999999999e-08]
---
header: 
  seq: 5803
  stamp: 
    secs: 137
    nsecs: 556000000
  frame_id: "base_link"
orientation: 
  x: 0.004560001224928807
  y: -0.00708417203097908
  z: -6.528546834333503e-05
  w: -0.9999645373861313
orientation_covariance: [1.0, 0.0, 0.0, 0.0, 1.0, 0.0, 0.0, 0.0, 1.0]
angular_velocity: 
  x: -0.003354183863848448
  y: -0.006301249377429485
  z: -0.0017102335114032021
angular_velocity_covariance: [1.2184696791468346e-07, 0.0, 0.0, 0.0, 1.2184696791468346e-07, 0.0, 0.0, 0.0, 1.2184696791468346e-07]
linear_acceleration: 
  x: -0.164084792137146
  y: -0.07726816833019136
  z: 9.849933624267578
linear_acceleration_covariance: [8.999999999999999e-08, 0.0, 0.0, 0.0, 8.999999999999999e-08, 0.0, 0.0, 0.0, 8.999999999999999e-08]
---
header: 
  seq: 5804
  stamp: 
    secs: 137
    nsecs: 580000000
  frame_id: "base_link"
orientation: 
  x: 0.004593930096524585
  y: -0.007027906646761546
  z: -5.618174906496564e-05
  w: -0.9999647902672223
orientation_covariance: [1.0, 0.0, 0.0, 0.0, 1.0, 0.0, 0.0, 0.0, 1.0]
angular_velocity: 
  x: -0.00310954125598073
  y: -0.004730207845568657
  z: 0.001311753876507283
angular_velocity_covariance: [1.2184696791468346e-07, 0.0, 0.0, 0.0, 1.2184696791468346e-07, 0.0, 0.0, 0.0, 1.2184696791468346e-07]
linear_acceleration: 
  x: -0.19760361313819885
  y: -0.0940275788307178
  z: 9.791275978088379
linear_acceleration_covariance: [8.999999999999999e-08, 0.0, 0.0, 0.0, 8.999999999999999e-08, 0.0, 0.0, 0.0, 8.999999999999999e-08]
---
header: 
  seq: 5805
  stamp: 
    secs: 137
    nsecs: 600000000
  frame_id: "base_link"
orientation: 
  x: 0.004636302167257209
  y: -0.0069743327339481355
  z: -5.390581924530389e-05
  w: -0.9999649588546164
orientation_covariance: [1.0, 0.0, 0.0, 0.0, 1.0, 0.0, 0.0, 0.0, 1.0]
angular_velocity: 
  x: -0.0038484777323901653
  y: -0.008582863956689835
  z: 0.002799790585413576
angular_velocity_covariance: [1.2184696791468346e-07, 0.0, 0.0, 0.0, 1.2184696791468346e-07, 0.0, 0.0, 0.0, 1.2184696791468346e-07]
linear_acceleration: 
  x: -0.1353543996810913
  y: -0.12395509332418321
  z: 9.806840896606445
linear_acceleration_covariance: [8.999999999999999e-08, 0.0, 0.0, 0.0, 8.999999999999999e-08, 0.0, 0.0, 0.0, 8.999999999999999e-08]
---
header: 
  seq: 5806
  stamp: 
    secs: 137
    nsecs: 620000000
  frame_id: "base_link"
orientation: 
  x: 0.00465835023738447
  y: -0.006896849704227904
  z: -6.0860049249711754e-05
  w: -0.999965338176253
orientation_covariance: [1.0, 0.0, 0.0, 0.0, 1.0, 0.0, 0.0, 0.0, 1.0]
angular_velocity: 
  x: -0.0020690234377980232
  y: -0.009420346468687057
  z: 0.002679423661902548
angular_velocity_covariance: [1.2184696791468346e-07, 0.0, 0.0, 0.0, 1.2184696791468346e-07, 0.0, 0.0, 0.0, 1.2184696791468346e-07]
linear_acceleration: 
  x: -0.1616905927658081
  y: -0.10001306980848192
  z: 9.824796676635742
linear_acceleration_covariance: [8.999999999999999e-08, 0.0, 0.0, 0.0, 8.999999999999999e-08, 0.0, 0.0, 0.0, 8.999999999999999e-08]
---
header: 
  seq: 5807
  stamp: 
    secs: 137
    nsecs: 636000000
  frame_id: "base_link"
orientation: 
  x: 0.004667288991263573
  y: -0.006783398619842927
  z: -5.066051191005047e-05
  w: -0.9999660968195263
orientation_covariance: [1.0, 0.0, 0.0, 0.0, 1.0, 0.0, 0.0, 0.0, 1.0]
angular_velocity: 
  x: -0.0013928196858614683
  y: -0.00968630239367485
  z: -0.002547183074057101
angular_velocity_covariance: [1.2184696791468346e-07, 0.0, 0.0, 0.0, 1.2184696791468346e-07, 0.0, 0.0, 0.0, 1.2184696791468346e-07]
linear_acceleration: 
  x: -0.15570510923862457
  y: -0.0832536593079555
  z: 9.797264099121094
linear_acceleration_covariance: [8.999999999999999e-08, 0.0, 0.0, 0.0, 8.999999999999999e-08, 0.0, 0.0, 0.0, 8.999999999999999e-08]
---
header: 
  seq: 5808
  stamp: 
    secs: 137
    nsecs: 656000000
  frame_id: "base_link"
orientation: 
  x: 0.00468596737146155
  y: -0.006685821339232557
  z: -3.5614086991653655e-05
  w: -0.9999667290222539
orientation_covariance: [1.0, 0.0, 0.0, 0.0, 1.0, 0.0, 0.0, 0.0, 1.0]
angular_velocity: 
  x: -0.0017993878573179245
  y: -0.007494722027331591
  z: -0.0023106737062335006
angular_velocity_covariance: [1.2184696791468346e-07, 0.0, 0.0, 0.0, 1.2184696791468346e-07, 0.0, 0.0, 0.0, 1.2184696791468346e-07]
linear_acceleration: 
  x: -0.14612826704978943
  y: -0.11318116635084031
  z: 9.825994491577148
linear_acceleration_covariance: [8.999999999999999e-08, 0.0, 0.0, 0.0, 8.999999999999999e-08, 0.0, 0.0, 0.0, 8.999999999999999e-08]
---
header: 
  seq: 5809
  stamp: 
    secs: 137
    nsecs: 676000000
  frame_id: "base_link"
orientation: 
  x: 0.004691076935980925
  y: -0.006595334113431254
  z: -1.2349026613623208e-05
  w: -0.9999672347844359
orientation_covariance: [1.0, 0.0, 0.0, 0.0, 1.0, 0.0, 0.0, 0.0, 1.0]
angular_velocity: 
  x: -2.3546948796138167e-05
  y: -0.011535684578120708
  z: 0.0009018895216286196
angular_velocity_covariance: [1.2184696791468346e-07, 0.0, 0.0, 0.0, 1.2184696791468346e-07, 0.0, 0.0, 0.0, 1.2184696791468346e-07]
linear_acceleration: 
  x: -0.15929639339447021
  y: -0.11318116635084033
  z: 9.76613712310791
linear_acceleration_covariance: [8.999999999999999e-08, 0.0, 0.0, 0.0, 8.999999999999999e-08, 0.0, 0.0, 0.0, 8.999999999999999e-08]
---
header: 
  seq: 5810
  stamp: 
    secs: 137
    nsecs: 700000000
  frame_id: "base_link"
orientation: 
  x: 0.00469042892818507
  y: -0.006472822444433197
  z: -1.622653667660052e-05
  w: -0.9999680777214062
orientation_covariance: [1.0, 0.0, 0.0, 0.0, 1.0, 0.0, 0.0, 0.0, 1.0]
angular_velocity: 
  x: 0.0009284886764362454
  y: -0.013134084641933441
  z: 0.00045824307017028494
angular_velocity_covariance: [1.2184696791468346e-07, 0.0, 0.0, 0.0, 1.2184696791468346e-07, 0.0, 0.0, 0.0, 1.2184696791468346e-07]
linear_acceleration: 
  x: -0.18204133212566376
  y: -0.10599856823682666
  z: 9.792472839355469
linear_acceleration_covariance: [8.999999999999999e-08, 0.0, 0.0, 0.0, 8.999999999999999e-08, 0.0, 0.0, 0.0, 8.999999999999999e-08]
---
header: 
  seq: 5811
  stamp: 
    secs: 137
    nsecs: 716000000
  frame_id: "base_link"
orientation: 
  x: 0.004682176624637475
  y: -0.006364183756358367
  z: -1.7111620495336267e-05
  w: -0.9999687942178308
orientation_covariance: [1.0, 0.0, 0.0, 0.0, 1.0, 0.0, 0.0, 0.0, 1.0]
angular_velocity: 
  x: -0.0001319186412729323
  y: -0.010818254202604294
  z: 0.0012691189767792834
angular_velocity_covariance: [1.2184696791468346e-07, 0.0, 0.0, 0.0, 1.2184696791468346e-07, 0.0, 0.0, 0.0, 1.2184696791468346e-07]
linear_acceleration: 
  x: -0.1988007128238678
  y: -0.12874346971511721
  z: 9.80204963684082
linear_acceleration_covariance: [8.999999999999999e-08, 0.0, 0.0, 0.0, 8.999999999999999e-08, 0.0, 0.0, 0.0, 8.999999999999999e-08]
---
header: 
  seq: 5812
  stamp: 
    secs: 137
    nsecs: 740000000
  frame_id: "base_link"
orientation: 
  x: 0.004670695971275622
  y: -0.006260959127319791
  z: -1.137964909692474e-06
  w: -0.9999695107142555
orientation_covariance: [1.0, 0.0, 0.0, 0.0, 1.0, 0.0, 0.0, 0.0, 1.0]
angular_velocity: 
  x: -8.354446617886424e-05
  y: -0.007033861242234708
  z: -0.004144738428294658
angular_velocity_covariance: [1.2184696791468346e-07, 0.0, 0.0, 0.0, 1.2184696791468346e-07, 0.0, 0.0, 0.0, 1.2184696791468346e-07]
linear_acceleration: 
  x: -0.1700703203678131
  y: -0.1311376690864551
  z: 9.774517059326172
linear_acceleration_covariance: [8.999999999999999e-08, 0.0, 0.0, 0.0, 8.999999999999999e-08, 0.0, 0.0, 0.0, 8.999999999999999e-08]
---
header: 
  seq: 5813
  stamp: 
    secs: 137
    nsecs: 760000000
  frame_id: "base_link"
orientation: 
  x: 0.004661369087727126
  y: -0.006186738444774043
  z: 2.9966409291315064e-05
  w: -0.9999700164764378
orientation_covariance: [1.0, 0.0, 0.0, 0.0, 1.0, 0.0, 0.0, 0.0, 1.0]
angular_velocity: 
  x: -3.872188972309232e-05
  y: -0.008259773254394531
  z: -0.0011797171318903555
angular_velocity_covariance: [1.2184696791468346e-07, 0.0, 0.0, 0.0, 1.2184696791468346e-07, 0.0, 0.0, 0.0, 1.2184696791468346e-07]
linear_acceleration: 
  x: -0.15929639339447021
  y: -0.0700855478644359
  z: 9.821203231811523
linear_acceleration_covariance: [8.999999999999999e-08, 0.0, 0.0, 0.0, 8.999999999999999e-08, 0.0, 0.0, 0.0, 8.999999999999999e-08]
---
header: 
  seq: 5814
  stamp: 
    secs: 137
    nsecs: 780000000
  frame_id: "base_link"
orientation: 
  x: 0.004676832371319068
  y: -0.00612106048390391
  z: 2.8617710138955822e-05
  w: -0.9999703536512258
orientation_covariance: [1.0, 0.0, 0.0, 0.0, 1.0, 0.0, 0.0, 0.0, 1.0]
angular_velocity: 
  x: -0.004255749750882387
  y: -0.004611035343259573
  z: 0.0011113908840343363
angular_velocity_covariance: [1.2184696791468346e-07, 0.0, 0.0, 0.0, 1.2184696791468346e-07, 0.0, 0.0, 0.0, 1.2184696791468346e-07]
linear_acceleration: 
  x: -0.16767612099647522
  y: -0.12395509332418321
  z: 9.823596954345703
linear_acceleration_covariance: [8.999999999999999e-08, 0.0, 0.0, 0.0, 8.999999999999999e-08, 0.0, 0.0, 0.0, 8.999999999999999e-08]
---
header: 
  seq: 5815
  stamp: 
    secs: 137
    nsecs: 800000000
  frame_id: "base_link"
orientation: 
  x: 0.0047081594981999335
  y: -0.006079386305713621
  z: 1.2391173462300192e-05
  w: -0.9999704800917713
orientation_covariance: [1.0, 0.0, 0.0, 0.0, 1.0, 0.0, 0.0, 0.0, 1.0]
angular_velocity: 
  x: -0.0038994350470602512
  y: -0.0010313428938388822
  z: 0.0013874984579160812
angular_velocity_covariance: [1.2184696791468346e-07, 0.0, 0.0, 0.0, 1.2184696791468346e-07, 0.0, 0.0, 0.0, 1.2184696791468346e-07]
linear_acceleration: 
  x: -0.17964710295200348
  y: -0.11677248030900834
  z: 9.809234619140625
linear_acceleration_covariance: [8.999999999999999e-08, 0.0, 0.0, 0.0, 8.999999999999999e-08, 0.0, 0.0, 0.0, 8.999999999999999e-08]
---
header: 
  seq: 5816
  stamp: 
    secs: 137
    nsecs: 820000000
  frame_id: "base_link"
orientation: 
  x: 0.0047611091519788075
  y: -0.006053538392616267
  z: 6.74349576234763e-07
  w: -0.9999703957980743
orientation_covariance: [1.0, 0.0, 0.0, 0.0, 1.0, 0.0, 0.0, 0.0, 1.0]
angular_velocity: 
  x: -0.005935129709541798
  y: -0.0003169053234159947
  z: -0.0004940899671055377
angular_velocity_covariance: [1.2184696791468346e-07, 0.0, 0.0, 0.0, 1.2184696791468346e-07, 0.0, 0.0, 0.0, 1.2184696791468346e-07]
linear_acceleration: 
  x: -0.13655149936676025
  y: -0.13233476877212405
  z: 9.833174705505371
linear_acceleration_covariance: [8.999999999999999e-08, 0.0, 0.0, 0.0, 8.999999999999999e-08, 0.0, 0.0, 0.0, 8.999999999999999e-08]
---
header: 
  seq: 5817
  stamp: 
    secs: 137
    nsecs: 836000000
  frame_id: "base_link"
orientation: 
  x: 0.004838255336183205
  y: -0.006080315800127606
  z: 2.486664062217497e-06
  w: -0.9999698478890438
orientation_covariance: [1.0, 0.0, 0.0, 0.0, 1.0, 0.0, 0.0, 0.0, 1.0]
angular_velocity: 
  x: -0.0055968440137803555
  y: 0.004312427248805761
  z: 0.0009650830179452891
angular_velocity_covariance: [1.2184696791468346e-07, 0.0, 0.0, 0.0, 1.2184696791468346e-07, 0.0, 0.0, 0.0, 1.2184696791468346e-07]
linear_acceleration: 
  x: -0.14612826704978943
  y: -0.10240726917981981
  z: 9.806840896606445
linear_acceleration_covariance: [8.999999999999999e-08, 0.0, 0.0, 0.0, 8.999999999999999e-08, 0.0, 0.0, 0.0, 8.999999999999999e-08]
---
header: 
  seq: 5818
  stamp: 
    secs: 137
    nsecs: 860000000
  frame_id: "base_link"
orientation: 
  x: 0.004910662798744286
  y: -0.006139129257682654
  z: 5.858411943115606e-06
  w: -0.9999691735394676
orientation_covariance: [1.0, 0.0, 0.0, 0.0, 1.0, 0.0, 0.0, 0.0, 1.0]
angular_velocity: 
  x: -0.003992854151874781
  y: 0.006716012489050627
  z: -0.0005808396381326028
angular_velocity_covariance: [1.2184696791468346e-07, 0.0, 0.0, 0.0, 1.2184696791468346e-07, 0.0, 0.0, 0.0, 1.2184696791468346e-07]
linear_acceleration: 
  x: -0.15690219402313232
  y: -0.09881597012281298
  z: 9.787686347961426
linear_acceleration_covariance: [8.999999999999999e-08, 0.0, 0.0, 0.0, 8.999999999999999e-08, 0.0, 0.0, 0.0, 8.999999999999999e-08]
---
header: 
  seq: 5819
  stamp: 
    secs: 137
    nsecs: 876000000
  frame_id: "base_link"
orientation: 
  x: 0.004964480249548555
  y: -0.006192704611062176
  z: 9.483040915025563e-06
  w: -0.9999684991898913
orientation_covariance: [1.0, 0.0, 0.0, 0.0, 1.0, 0.0, 0.0, 0.0, 1.0]
angular_velocity: 
  x: -0.002250412479043007
  y: 0.003188940230756998
  z: 6.752110493835022e-05
angular_velocity_covariance: [1.2184696791468346e-07, 0.0, 0.0, 0.0, 1.2184696791468346e-07, 0.0, 0.0, 0.0, 1.2184696791468346e-07]
linear_acceleration: 
  x: -0.16767612099647522
  y: -0.1395174115896213
  z: 9.76494026184082
linear_acceleration_covariance: [8.999999999999999e-08, 0.0, 0.0, 0.0, 8.999999999999999e-08, 0.0, 0.0, 0.0, 8.999999999999999e-08]
---
header: 
  seq: 5820
  stamp: 
    secs: 137
    nsecs: 900000000
  frame_id: "base_link"
orientation: 
  x: 0.005018661628511547
  y: -0.006248820217563177
  z: -7.2071110953090765e-06
  w: -0.9999679091340121
orientation_covariance: [1.0, 0.0, 0.0, 0.0, 1.0, 0.0, 0.0, 0.0, 1.0]
angular_velocity: 
  x: -0.003449870040640235
  y: 0.003477230202406645
  z: 0.0002420917589915912
angular_velocity_covariance: [1.2184696791468346e-07, 0.0, 0.0, 0.0, 1.2184696791468346e-07, 0.0, 0.0, 0.0, 1.2184696791468346e-07]
linear_acceleration: 
  x: -0.13056600093841553
  y: -0.06649424880742907
  z: 9.786489486694336
linear_acceleration_covariance: [8.999999999999999e-08, 0.0, 0.0, 0.0, 8.999999999999999e-08, 0.0, 0.0, 0.0, 8.999999999999999e-08]
---
header: 
  seq: 5821
  stamp: 
    secs: 137
    nsecs: 916000000
  frame_id: "base_link"
orientation: 
  x: 0.005039611987262065
  y: -0.006279428625431642
  z: -3.2031604867425693e-06
  w: -0.9999676141060725
orientation_covariance: [1.0, 0.0, 0.0, 0.0, 1.0, 0.0, 0.0, 0.0, 1.0]
angular_velocity: 
  x: -0.0015878260601311922
  y: 0.005034479778259993
  z: -0.00034418641007505417
angular_velocity_covariance: [1.2184696791468346e-07, 0.0, 0.0, 0.0, 1.2184696791468346e-07, 0.0, 0.0, 0.0, 1.2184696791468346e-07]
linear_acceleration: 
  x: -0.13894566893577576
  y: -0.10001306980848192
  z: 9.811626434326172
linear_acceleration_covariance: [8.999999999999999e-08, 0.0, 0.0, 0.0, 8.999999999999999e-08, 0.0, 0.0, 0.0, 8.999999999999999e-08]
---
header: 
  seq: 5822
  stamp: 
    secs: 137
    nsecs: 936000000
  frame_id: "base_link"
orientation: 
  x: 0.005050681873487064
  y: -0.006317101569509492
  z: -1.3613432068904472e-05
  w: -0.9999673190781331
orientation_covariance: [1.0, 0.0, 0.0, 0.0, 1.0, 0.0, 0.0, 0.0, 1.0]
angular_velocity: 
  x: 0.002184950979426503
  y: -0.001276175491511822
  z: -0.0012111384421586988
angular_velocity_covariance: [1.2184696791468346e-07, 0.0, 0.0, 0.0, 1.2184696791468346e-07, 0.0, 0.0, 0.0, 1.2184696791468346e-07]
linear_acceleration: 
  x: -0.17964708805084229
  y: -0.08205656707286715
  z: 9.791275978088379
linear_acceleration_covariance: [8.999999999999999e-08, 0.0, 0.0, 0.0, 8.999999999999999e-08, 0.0, 0.0, 0.0, 8.999999999999999e-08]
---
header: 
  seq: 5823
  stamp: 
    secs: 137
    nsecs: 956000000
  frame_id: "base_link"
orientation: 
  x: 0.005045868653996282
  y: -0.006304558189947882
  z: -4.341125396545684e-06
  w: -0.99996740337183
orientation_covariance: [1.0, 0.0, 0.0, 0.0, 1.0, 0.0, 0.0, 0.0, 1.0]
angular_velocity: 
  x: 0.0033816308714449406
  y: 0.0005129645578563214
  z: 0.001141532207839191
angular_velocity_covariance: [1.2184696791468346e-07, 0.0, 0.0, 0.0, 1.2184696791468346e-07, 0.0, 0.0, 0.0, 1.2184696791468346e-07]
linear_acceleration: 
  x: -0.16887322068214417
  y: -0.11677248030900836
  z: 9.794866561889648
linear_acceleration_covariance: [8.999999999999999e-08, 0.0, 0.0, 0.0, 8.999999999999999e-08, 0.0, 0.0, 0.0, 8.999999999999999e-08]
---
header: 
  seq: 5824
  stamp: 
    secs: 137
    nsecs: 980000000
  frame_id: "base_link"
orientation: 
  x: 0.005019567003732928
  y: -0.006329187137160959
  z: -2.4866640620517234e-06
  w: -0.99996740337183
orientation_covariance: [1.0, 0.0, 0.0, 0.0, 1.0, 0.0, 0.0, 0.0, 1.0]
angular_velocity: 
  x: 0.0028439853340387344
  y: 0.0025762533769011497
  z: -0.00022052662097848984
angular_velocity_covariance: [1.2184696791468346e-07, 0.0, 0.0, 0.0, 1.2184696791468346e-07, 0.0, 0.0, 0.0, 1.2184696791468346e-07]
linear_acceleration: 
  x: -0.15809929370880127
  y: -0.12036380916833758
  z: 9.794866561889648
linear_acceleration_covariance: [8.999999999999999e-08, 0.0, 0.0, 0.0, 8.999999999999999e-08, 0.0, 0.0, 0.0, 8.999999999999999e-08]
---
header: 
  seq: 5825
  stamp: 
    secs: 138
    nsecs:         0
  frame_id: "base_link"
orientation: 
  x: 0.00498736339527097
  y: -0.00635269664102853
  z: -1.3908460007598382e-06
  w: -0.99996740337183
orientation_covariance: [1.0, 0.0, 0.0, 0.0, 1.0, 0.0, 0.0, 0.0, 1.0]
angular_velocity: 
  x: 0.0023824453819543123
  y: 2.1905172616243467e-05
  z: 0.0008643961627967656
angular_velocity_covariance: [1.2184696791468346e-07, 0.0, 0.0, 0.0, 1.2184696791468346e-07, 0.0, 0.0, 0.0, 1.2184696791468346e-07]
linear_acceleration: 
  x: -0.1748587191104889
  y: -0.12515218555927157
  z: 9.816417694091797
linear_acceleration_covariance: [8.999999999999999e-08, 0.0, 0.0, 0.0, 8.999999999999999e-08, 0.0, 0.0, 0.0, 8.999999999999999e-08]
---
header: 
  seq: 5826
  stamp: 
    secs: 138
    nsecs:  16000000
  frame_id: "base_link"
orientation: 
  x: 0.004949198806558879
  y: -0.006333073949165136
  z: -8.429369702134647e-06
  w: -0.9999676983997696
orientation_covariance: [1.0, 0.0, 0.0, 0.0, 1.0, 0.0, 0.0, 0.0, 1.0]
angular_velocity: 
  x: 0.0035495092160999775
  y: -0.00340562267228961
  z: 0.0010020268382504587
angular_velocity_covariance: [1.2184696791468346e-07, 0.0, 0.0, 0.0, 1.2184696791468346e-07, 0.0, 0.0, 0.0, 1.2184696791468346e-07]
linear_acceleration: 
  x: -0.15809927880764008
  y: -0.13592609763145327
  z: 9.809234619140625
linear_acceleration_covariance: [8.999999999999999e-08, 0.0, 0.0, 0.0, 8.999999999999999e-08, 0.0, 0.0, 0.0, 8.999999999999999e-08]
---
header: 
  seq: 5827
  stamp: 
    secs: 138
    nsecs:  36000000
  frame_id: "base_link"
orientation: 
  x: 0.0048974046102782925
  y: -0.006324800983783604
  z: -1.1969704977022155e-05
  w: -0.9999680355745577
orientation_covariance: [1.0, 0.0, 0.0, 0.0, 1.0, 0.0, 0.0, 0.0, 1.0]
angular_velocity: 
  x: 0.006596297957003117
  y: -0.0024345731362700462
  z: 0.00013610631867777586
angular_velocity_covariance: [1.2184696791468346e-07, 0.0, 0.0, 0.0, 1.2184696791468346e-07, 0.0, 0.0, 0.0, 1.2184696791468346e-07]
linear_acceleration: 
  x: -0.1772528886795044
  y: -0.11318116635084031
  z: 9.831977844238281
linear_acceleration_covariance: [8.999999999999999e-08, 0.0, 0.0, 0.0, 8.999999999999999e-08, 0.0, 0.0, 0.0, 8.999999999999999e-08]
---
header: 
  seq: 5828
  stamp: 
    secs: 138
    nsecs:  56000000
  frame_id: "base_link"
orientation: 
  x: 0.004852288960807349
  y: -0.006299723691237685
  z: -1.2854788795757908e-05
  w: -0.9999684148961943
orientation_covariance: [1.0, 0.0, 0.0, 0.0, 1.0, 0.0, 0.0, 0.0, 1.0]
angular_velocity: 
  x: 0.004681373480707407
  y: -0.0030417216476053004
  z: -0.0030257937032729383
angular_velocity_covariance: [1.2184696791468346e-07, 0.0, 0.0, 0.0, 1.2184696791468346e-07, 0.0, 0.0, 0.0, 1.2184696791468346e-07]
linear_acceleration: 
  x: -0.15450800955295563
  y: -0.11437828093767047
  z: 9.792472839355469
linear_acceleration_covariance: [8.999999999999999e-08, 0.0, 0.0, 0.0, 8.999999999999999e-08, 0.0, 0.0, 0.0, 8.999999999999999e-08]
---
header: 
  seq: 5829
  stamp: 
    secs: 138
    nsecs:  76000000
  frame_id: "base_link"
orientation: 
  x: 0.004806195043469796
  y: -0.0062803187718112755
  z: 5.099768669913522e-06
  w: -0.9999687520709823
orientation_covariance: [1.0, 0.0, 0.0, 0.0, 1.0, 0.0, 0.0, 0.0, 1.0]
angular_velocity: 
  x: 0.0015352938789874315
  y: -0.0003507076762616635
  z: -0.0003979982575401663
angular_velocity_covariance: [1.2184696791468346e-07, 0.0, 0.0, 0.0, 1.2184696791468346e-07, 0.0, 0.0, 0.0, 1.2184696791468346e-07]
linear_acceleration: 
  x: -0.1305270493030548
  y: -0.09996077418327212
  z: 9.786581993103027
linear_acceleration_covariance: [8.999999999999999e-08, 0.0, 0.0, 0.0, 8.999999999999999e-08, 0.0, 0.0, 0.0, 8.999999999999999e-08]
---
header: 
  seq: 5830
  stamp: 
    secs: 138
    nsecs:  96000000
  frame_id: "base_link"
orientation: 
  x: 0.004778129028992462
  y: -0.006275408828595883
  z: -2.2337829709843615e-06
  w: -0.9999689206583764
orientation_covariance: [1.0, 0.0, 0.0, 0.0, 1.0, 0.0, 0.0, 0.0, 1.0]
angular_velocity: 
  x: 0.002273763529956341
  y: 0.0005052685737609861
  z: -0.001532931812107563
angular_velocity_covariance: [1.2184696791468346e-07, 0.0, 0.0, 0.0, 1.2184696791468346e-07, 0.0, 0.0, 0.0, 1.2184696791468346e-07]
linear_acceleration: 
  x: -0.17481976747512817
  y: -0.08080716431140779
  z: 9.832070350646973
linear_acceleration_covariance: [8.999999999999999e-08, 0.0, 0.0, 0.0, 8.999999999999999e-08, 0.0, 0.0, 0.0, 8.999999999999999e-08]
---
header: 
  seq: 5831
  stamp: 
    secs: 138
    nsecs: 116000000
  frame_id: "base_link"
orientation: 
  x: 0.004739122696922074
  y: -0.006282897879058727
  z: -2.1073424254506827e-06
  w: -0.999969047098922
orientation_covariance: [1.0, 0.0, 0.0, 0.0, 1.0, 0.0, 0.0, 0.0, 1.0]
angular_velocity: 
  x: 0.005925413686782122
  y: -0.0016092187725007532
  z: 0.0015347907319664957
angular_velocity_covariance: [1.2184696791468346e-07, 0.0, 0.0, 0.0, 1.2184696791468346e-07, 0.0, 0.0, 0.0, 1.2184696791468346e-07]
linear_acceleration: 
  x: -0.13770964741706848
  y: -0.09756657481193422
  z: 9.82848072052002
linear_acceleration_covariance: [8.999999999999999e-08, 0.0, 0.0, 0.0, 8.999999999999999e-08, 0.0, 0.0, 0.0, 8.999999999999999e-08]
---
header: 
  seq: 5832
  stamp: 
    secs: 138
    nsecs: 140000000
  frame_id: "base_link"
orientation: 
  x: 0.0046987738395541006
  y: -0.0062917413086203
  z: -5.43694345783757e-06
  w: -0.9999691735394675
orientation_covariance: [1.0, 0.0, 0.0, 0.0, 1.0, 0.0, 0.0, 0.0, 1.0]
angular_velocity: 
  x: 0.001055500004440546
  y: 0.0001775505952537059
  z: -0.0006422012811526656
angular_velocity_covariance: [1.2184696791468346e-07, 0.0, 0.0, 0.0, 1.2184696791468346e-07, 0.0, 0.0, 0.0, 1.2184696791468346e-07]
linear_acceleration: 
  x: -0.17122846841812134
  y: -0.09277816116809726
  z: 9.772214889526367
linear_acceleration_covariance: [8.999999999999999e-08, 0.0, 0.0, 0.0, 8.999999999999999e-08, 0.0, 0.0, 0.0, 8.999999999999999e-08]
---
header: 
  seq: 5833
  stamp: 
    secs: 138
    nsecs: 156000000
  frame_id: "base_link"
orientation: 
  x: 0.004690229142244961
  y: -0.006290317617712105
  z: -7.965754368455642e-06
  w: -0.9999692578331645
orientation_covariance: [1.0, 0.0, 0.0, 0.0, 1.0, 0.0, 0.0, 0.0, 1.0]
angular_velocity: 
  x: -0.0007430425030179322
  y: -0.0010027899406850336
  z: 0.0016345662297680976
angular_velocity_covariance: [1.2184696791468346e-07, 0.0, 0.0, 0.0, 1.2184696791468346e-07, 0.0, 0.0, 0.0, 1.2184696791468346e-07]
linear_acceleration: 
  x: -0.15806032717227936
  y: -0.0915810763835895
  z: 9.799750328063965
linear_acceleration_covariance: [8.999999999999999e-08, 0.0, 0.0, 0.0, 8.999999999999999e-08, 0.0, 0.0, 0.0, 8.999999999999999e-08]
---
header: 
  seq: 5834
  stamp: 
    secs: 138
    nsecs: 176000000
  frame_id: "base_link"
orientation: 
  x: 0.004684185020750696
  y: -0.006304308395784198
  z: -2.216924231662792e-05
  w: -0.999969215686316
orientation_covariance: [1.0, 0.0, 0.0, 0.0, 1.0, 0.0, 0.0, 0.0, 1.0]
angular_velocity: 
  x: -0.0002396853524260223
  y: 0.0033935238607227802
  z: 0.001211183960549533
angular_velocity_covariance: [1.2184696791468346e-07, 0.0, 0.0, 0.0, 1.2184696791468346e-07, 0.0, 0.0, 0.0, 1.2184696791468346e-07]
linear_acceleration: 
  x: -0.17721393704414368
  y: -0.11193177103996156
  z: 9.804536819458008
linear_acceleration_covariance: [8.999999999999999e-08, 0.0, 0.0, 0.0, 8.999999999999999e-08, 0.0, 0.0, 0.0, 8.999999999999999e-08]
---
header: 
  seq: 5835
  stamp: 
    secs: 138
    nsecs: 200000000
  frame_id: "base_link"
orientation: 
  x: 0.0046871442728153795
  y: -0.006345452527963625
  z: -3.944945020611973e-05
  w: -0.9999688785115279
orientation_covariance: [1.0, 0.0, 0.0, 0.0, 1.0, 0.0, 0.0, 0.0, 1.0]
angular_velocity: 
  x: -0.004137556534260511
  y: 0.003541624639183283
  z: -0.0001339049777016048
angular_velocity_covariance: [1.2184696791468346e-07, 0.0, 0.0, 0.0, 1.2184696791468346e-07, 0.0, 0.0, 0.0, 1.2184696791468346e-07]
linear_acceleration: 
  x: -0.1676371693611145
  y: -0.12270571291446565
  z: 9.80573558807373
linear_acceleration_covariance: [8.999999999999999e-08, 0.0, 0.0, 0.0, 8.999999999999999e-08, 0.0, 0.0, 0.0, 8.999999999999999e-08]
---
header: 
  seq: 5836
  stamp: 
    secs: 138
    nsecs: 220000000
  frame_id: "base_link"
orientation: 
  x: 0.004723836479484716
  y: -0.006388764917935584
  z: -3.3000982383957604e-05
  w: -0.9999684991898914
orientation_covariance: [1.0, 0.0, 0.0, 0.0, 1.0, 0.0, 0.0, 0.0, 1.0]
angular_velocity: 
  x: -0.002613414777442813
  y: 0.002000251319259405
  z: 0.00039286894025281045
angular_velocity_covariance: [1.2184696791468346e-07, 0.0, 0.0, 0.0, 1.2184696791468346e-07, 0.0, 0.0, 0.0, 1.2184696791468346e-07]
linear_acceleration: 
  x: -0.15327195823192596
  y: -0.1071433722972858
  z: 9.785383224487305
linear_acceleration_covariance: [8.999999999999999e-08, 0.0, 0.0, 0.0, 8.999999999999999e-08, 0.0, 0.0, 0.0, 8.999999999999999e-08]
---
header: 
  seq: 5837
  stamp: 
    secs: 138
    nsecs: 236000000
  frame_id: "base_link"
orientation: 
  x: 0.004762846598186024
  y: -0.006437919420873986
  z: -2.3391500923453494e-05
  w: -0.9999679934277093
orientation_covariance: [1.0, 0.0, 0.0, 0.0, 1.0, 0.0, 0.0, 0.0, 1.0]
angular_velocity: 
  x: -0.002474281471222639
  y: 0.0019743782468140125
  z: 0.00018270080909132933
angular_velocity_covariance: [1.2184696791468346e-07, 0.0, 0.0, 0.0, 1.2184696791468346e-07, 0.0, 0.0, 0.0, 1.2184696791468346e-07]
linear_acceleration: 
  x: -0.1460893154144287
  y: -0.12031151354312776
  z: 9.816509246826172
linear_acceleration_covariance: [8.999999999999999e-08, 0.0, 0.0, 0.0, 8.999999999999999e-08, 0.0, 0.0, 0.0, 8.999999999999999e-08]
---
header: 
  seq: 5838
  stamp: 
    secs: 138
    nsecs: 260000000
  frame_id: "base_link"
orientation: 
  x: 0.004803962989178053
  y: -0.006483481975111659
  z: -2.7269010986430816e-05
  w: -0.9999674876655271
orientation_covariance: [1.0, 0.0, 0.0, 0.0, 1.0, 0.0, 0.0, 0.0, 1.0]
angular_velocity: 
  x: -0.0024173303972929716
  y: 0.003284313250333071
  z: 0.0018444278975948687
angular_velocity_covariance: [1.2184696791468346e-07, 0.0, 0.0, 0.0, 1.2184696791468346e-07, 0.0, 0.0, 0.0, 1.2184696791468346e-07]
linear_acceleration: 
  x: -0.1652429699897766
  y: -0.09756657481193422
  z: 9.82608699798584
linear_acceleration_covariance: [8.999999999999999e-08, 0.0, 0.0, 0.0, 8.999999999999999e-08, 0.0, 0.0, 0.0, 8.999999999999999e-08]
---
header: 
  seq: 5839
  stamp: 
    secs: 138
    nsecs: 280000000
  frame_id: "base_link"
orientation: 
  x: 0.0048528157140956705
  y: -0.006528433647000116
  z: 1.0536712128912827e-06
  w: -0.9999668976096479
orientation_covariance: [1.0, 0.0, 0.0, 0.0, 1.0, 0.0, 0.0, 0.0, 1.0]
angular_velocity: 
  x: -0.0021596301812678576
  y: 0.0019910703413188457
  z: -0.0010160984238609674
angular_velocity_covariance: [1.2184696791468346e-07, 0.0, 0.0, 0.0, 1.2184696791468346e-07, 0.0, 0.0, 0.0, 1.2184696791468346e-07]
linear_acceleration: 
  x: -0.15327195823192596
  y: -0.12509989738464236
  z: 9.82848072052002
linear_acceleration_covariance: [8.999999999999999e-08, 0.0, 0.0, 0.0, 8.999999999999999e-08, 0.0, 0.0, 0.0, 8.999999999999999e-08]
---
header: 
  seq: 5840
  stamp: 
    secs: 138
    nsecs: 300000000
  frame_id: "base_link"
orientation: 
  x: 0.004887773890757426
  y: -0.0065724968600292385
  z: 7.628579580531578e-06
  w: -0.9999664761411629
orientation_covariance: [1.0, 0.0, 0.0, 0.0, 1.0, 0.0, 0.0, 0.0, 1.0]
angular_velocity: 
  x: -0.0008370179566554725
  y: 0.002822824753820896
  z: 0.00038806174416094986
angular_velocity_covariance: [1.2184696791468346e-07, 0.0, 0.0, 0.0, 1.2184696791468346e-07, 0.0, 0.0, 0.0, 1.2184696791468346e-07]
linear_acceleration: 
  x: -0.14369511604309082
  y: -0.11672019958495973
  z: 9.811718940734863
linear_acceleration_covariance: [8.999999999999999e-08, 0.0, 0.0, 0.0, 8.999999999999999e-08, 0.0, 0.0, 0.0, 8.999999999999999e-08]
---
header: 
  seq: 5841
  stamp: 
    secs: 138
    nsecs: 320000000
  frame_id: "base_link"
orientation: 
  x: 0.0049088616383559215
  y: -0.006597828597709429
  z: 1.765952952609244e-05
  w: -0.9999662232600717
orientation_covariance: [1.0, 0.0, 0.0, 0.0, 1.0, 0.0, 0.0, 0.0, 1.0]
angular_velocity: 
  x: 0.0007018055766820908
  y: -0.0031139275524765257
  z: -0.002257311716675758
angular_velocity_covariance: [1.2184696791468346e-07, 0.0, 0.0, 0.0, 1.2184696791468346e-07, 0.0, 0.0, 0.0, 1.2184696791468346e-07]
linear_acceleration: 
  x: -0.1652429699897766
  y: -0.10714337229728578
  z: 9.80812931060791
linear_acceleration_covariance: [8.999999999999999e-08, 0.0, 0.0, 0.0, 8.999999999999999e-08, 0.0, 0.0, 0.0, 8.999999999999999e-08]
---
header: 
  seq: 5842
  stamp: 
    secs: 138
    nsecs: 340000000
  frame_id: "base_link"
orientation: 
  x: 0.004915236925419639
  y: -0.006598377247602642
  z: 1.8333879102272062e-05
  w: -0.9999661389663748
orientation_covariance: [1.0, 0.0, 0.0, 0.0, 1.0, 0.0, 0.0, 0.0, 1.0]
angular_velocity: 
  x: -0.00037691142642870545
  y: -1.5665311366319622e-05
  z: 0.000277216371614486
angular_velocity_covariance: [1.2184696791468346e-07, 0.0, 0.0, 0.0, 1.2184696791468346e-07, 0.0, 0.0, 0.0, 1.2184696791468346e-07]
linear_acceleration: 
  x: -0.19038209319114685
  y: -0.09517237544059634
  z: 9.797356605529785
linear_acceleration_covariance: [8.999999999999999e-08, 0.0, 0.0, 0.0, 8.999999999999999e-08, 0.0, 0.0, 0.0, 8.999999999999999e-08]
---
header: 
  seq: 5843
  stamp: 
    secs: 138
    nsecs: 360000000
  frame_id: "base_link"
orientation: 
  x: 0.004919768123224877
  y: -0.006598749572203843
  z: 9.314453520980632e-06
  w: -0.9999661389663748
orientation_covariance: [1.0, 0.0, 0.0, 0.0, 1.0, 0.0, 0.0, 0.0, 1.0]
angular_velocity: 
  x: 0.0014323811046779156
  y: 0.0006395173259079456
  z: 0.0003064225311391055
angular_velocity_covariance: [1.2184696791468346e-07, 0.0, 0.0, 0.0, 1.2184696791468346e-07, 0.0, 0.0, 0.0, 1.2184696791468346e-07]
linear_acceleration: 
  x: -0.13411834836006165
  y: -0.11073467135429263
  z: 9.785383224487305
linear_acceleration_covariance: [8.999999999999999e-08, 0.0, 0.0, 0.0, 8.999999999999999e-08, 0.0, 0.0, 0.0, 8.999999999999999e-08]
---
header: 
  seq: 5844
  stamp: 
    secs: 138
    nsecs: 380000000
  frame_id: "base_link"
orientation: 
  x: 0.004903357934948519
  y: -0.0065837722121407285
  z: 1.9851165648676213e-05
  w: -0.9999663075537688
orientation_covariance: [1.0, 0.0, 0.0, 0.0, 1.0, 0.0, 0.0, 0.0, 1.0]
angular_velocity: 
  x: 0.004706096835434437
  y: -0.002443820470944047
  z: -0.0010004192590713499
angular_velocity_covariance: [1.2184696791468346e-07, 0.0, 0.0, 0.0, 1.2184696791468346e-07, 0.0, 0.0, 0.0, 1.2184696791468346e-07]
linear_acceleration: 
  x: -0.1616516411304474
  y: -0.07242745161056398
  z: 9.823690414428711
linear_acceleration_covariance: [8.999999999999999e-08, 0.0, 0.0, 0.0, 8.999999999999999e-08, 0.0, 0.0, 0.0, 8.999999999999999e-08]
---
header: 
  seq: 5845
  stamp: 
    secs: 138
    nsecs: 400000000
  frame_id: "base_link"
orientation: 
  x: 0.004865423795655191
  y: -0.006577641821315917
  z: 2.5203815409601967e-05
  w: -0.9999666025817082
orientation_covariance: [1.0, 0.0, 0.0, 0.0, 1.0, 0.0, 0.0, 0.0, 1.0]
angular_velocity: 
  x: 0.005465845577418804
  y: -0.0007185190916061401
  z: -0.00018469343194738022
angular_velocity_covariance: [1.2184696791468346e-07, 0.0, 0.0, 0.0, 1.2184696791468346e-07, 0.0, 0.0, 0.0, 1.2184696791468346e-07]
linear_acceleration: 
  x: -0.12932991981506348
  y: -0.10235497355461001
  z: 9.784186363220215
linear_acceleration_covariance: [8.999999999999999e-08, 0.0, 0.0, 0.0, 8.999999999999999e-08, 0.0, 0.0, 0.0, 8.999999999999999e-08]
---
header: 
  seq: 5846
  stamp: 
    secs: 138
    nsecs: 420000000
  frame_id: "base_link"
orientation: 
  x: 0.00482153740182646
  y: -0.006587212777922684
  z: 4.227328905653764e-05
  w: -0.9999667290222538
orientation_covariance: [1.0, 0.0, 0.0, 0.0, 1.0, 0.0, 0.0, 0.0, 1.0]
angular_velocity: 
  x: 0.0057078199461102486
  y: -0.00037755770608782785
  z: -0.0011936206137761474
angular_velocity_covariance: [1.2184696791468346e-07, 0.0, 0.0, 0.0, 1.2184696791468346e-07, 0.0, 0.0, 0.0, 1.2184696791468346e-07]
linear_acceleration: 
  x: -0.13172414898872375
  y: -0.11911439895629763
  z: 9.798552513122559
linear_acceleration_covariance: [8.999999999999999e-08, 0.0, 0.0, 0.0, 8.999999999999999e-08, 0.0, 0.0, 0.0, 8.999999999999999e-08]
---
header: 
  seq: 5847
  stamp: 
    secs: 138
    nsecs: 440000000
  frame_id: "base_link"
orientation: 
  x: 0.004754181798822242
  y: -0.006583055715716044
  z: 4.442277833061019e-05
  w: -0.9999671083438905
orientation_covariance: [1.0, 0.0, 0.0, 0.0, 1.0, 0.0, 0.0, 0.0, 1.0]
angular_velocity: 
  x: 0.009669953025877476
  y: -0.0031608915887773037
  z: 0.0006299568340182309
angular_velocity_covariance: [1.2184696791468346e-07, 0.0, 0.0, 0.0, 1.2184696791468346e-07, 0.0, 0.0, 0.0, 1.2184696791468346e-07]
linear_acceleration: 
  x: -0.1113734021782875
  y: -0.08559556305408357
  z: 9.81291675567627
linear_acceleration_covariance: [8.999999999999999e-08, 0.0, 0.0, 0.0, 8.999999999999999e-08, 0.0, 0.0, 0.0, 8.999999999999999e-08]
---
header: 
  seq: 5848
  stamp: 
    secs: 138
    nsecs: 460000000
  frame_id: "base_link"
orientation: 
  x: 0.004651827847941281
  y: -0.006543356347869067
  z: 4.450707202757713e-05
  w: -0.9999677826934668
orientation_covariance: [1.0, 0.0, 0.0, 0.0, 1.0, 0.0, 0.0, 0.0, 1.0]
angular_velocity: 
  x: 0.00979330949485302
  y: -0.0038831725250929594
  z: 0.0004936347831971948
angular_velocity_covariance: [1.2184696791468346e-07, 0.0, 0.0, 0.0, 1.2184696791468346e-07, 0.0, 0.0, 0.0, 1.2184696791468346e-07]
linear_acceleration: 
  x: -0.15566617250442505
  y: -0.09756657481193422
  z: 9.817706108093262
linear_acceleration_covariance: [8.999999999999999e-08, 0.0, 0.0, 0.0, 8.999999999999999e-08, 0.0, 0.0, 0.0, 8.999999999999999e-08]
---
header: 
  seq: 5849
  stamp: 
    secs: 138
    nsecs: 476000000
  frame_id: "base_link"
orientation: 
  x: 0.004566743732873788
  y: -0.0064988165132522915
  z: 1.8755347587439844e-05
  w: -0.9999684991898914
orientation_covariance: [1.0, 0.0, 0.0, 0.0, 1.0, 0.0, 0.0, 0.0, 1.0]
angular_velocity: 
  x: 0.004418918397277594
  y: -0.005058774724602699
  z: 0.002781823975965381
angular_velocity_covariance: [1.2184696791468346e-07, 0.0, 0.0, 0.0, 1.2184696791468346e-07, 0.0, 0.0, 0.0, 1.2184696791468346e-07]
linear_acceleration: 
  x: -0.13770964741706848
  y: -0.08439846336841464
  z: 9.797355651855469
linear_acceleration_covariance: [8.999999999999999e-08, 0.0, 0.0, 0.0, 8.999999999999999e-08, 0.0, 0.0, 0.0, 8.999999999999999e-08]
---
header: 
  seq: 5850
  stamp: 
    secs: 138
    nsecs: 496000000
  frame_id: "base_link"
orientation: 
  x: 0.004525982132735435
  y: -0.006455719714288631
  z: 1.4877837524407017e-05
  w: -0.9999690049520735
orientation_covariance: [1.0, 0.0, 0.0, 0.0, 1.0, 0.0, 0.0, 0.0, 1.0]
angular_velocity: 
  x: 0.002153703011572361
  y: -0.0022688161116093397
  z: 0.0005257959710434082
angular_velocity_covariance: [1.2184696791468346e-07, 0.0, 0.0, 0.0, 1.2184696791468346e-07, 0.0, 0.0, 0.0, 1.2184696791468346e-07]
linear_acceleration: 
  x: -0.1676371693611145
  y: -0.09517237544059633
  z: 9.820098876953125
linear_acceleration_covariance: [8.999999999999999e-08, 0.0, 0.0, 0.0, 8.999999999999999e-08, 0.0, 0.0, 0.0, 8.999999999999999e-08]
---
header: 
  seq: 5851
  stamp: 
    secs: 138
    nsecs: 516000000
  frame_id: "base_link"
orientation: 
  x: 0.004497503540123849
  y: -0.0064304130012997444
  z: -8.345076005056689e-06
  w: -0.999969215686316
orientation_covariance: [1.0, 0.0, 0.0, 0.0, 1.0, 0.0, 0.0, 0.0, 1.0]
angular_velocity: 
  x: 0.002696824027225375
  y: -0.0016950860153883693
  z: 0.0025254639331251383
angular_velocity_covariance: [1.2184696791468346e-07, 0.0, 0.0, 0.0, 1.2184696791468346e-07, 0.0, 0.0, 0.0, 1.2184696791468346e-07]
linear_acceleration: 
  x: -0.16284874081611633
  y: -0.11672018468379855
  z: 9.777003288269043
linear_acceleration_covariance: [8.999999999999999e-08, 0.0, 0.0, 0.0, 8.999999999999999e-08, 0.0, 0.0, 0.0, 8.999999999999999e-08]
---
header: 
  seq: 5852
  stamp: 
    secs: 138
    nsecs: 540000000
  frame_id: "base_link"
orientation: 
  x: 0.00446406083901109
  y: -0.006417511949752237
  z: -1.4119194251094707e-05
  w: -0.9999695107142555
orientation_covariance: [1.0, 0.0, 0.0, 0.0, 1.0, 0.0, 0.0, 0.0, 1.0]
angular_velocity: 
  x: 0.0040000746957957745
  y: -0.0013890604022890327
  z: 0.0016141295200213792
angular_velocity_covariance: [1.2184696791468346e-07, 0.0, 0.0, 0.0, 1.2184696791468346e-07, 0.0, 0.0, 0.0, 1.2184696791468346e-07]
linear_acceleration: 
  x: -0.1544690579175949
  y: -0.0808071643114078
  z: 9.802142143249512
linear_acceleration_covariance: [8.999999999999999e-08, 0.0, 0.0, 0.0, 8.999999999999999e-08, 0.0, 0.0, 0.0, 8.999999999999999e-08]
---
header: 
  seq: 5853
  stamp: 
    secs: 138
    nsecs: 560000000
  frame_id: "base_link"
orientation: 
  x: 0.004435214037701479
  y: -0.006414575417473078
  z: -2.495093431836887e-05
  w: -0.9999696371548011
orientation_covariance: [1.0, 0.0, 0.0, 0.0, 1.0, 0.0, 0.0, 0.0, 1.0]
angular_velocity: 
  x: 0.0026934114284813404
  y: -0.0027480917051434517
  z: -0.0004972319584339854
